{
  "area": "../examples/datasets/kobe/generated/area.json",
  "property": "../examples/datasets/kobe/generated/property.json",
  "link": "../examples/datasets/kobe/generated/link.json",

  "overlay_map": true,
  "origin_lat": 34.65436065,
  "origin_lon": 135.16060138,
  "offset_x": 0,
  "offset_y": 0,

  "mode": "gps",
  "wind_scale": 1.0,
  "tiles": "OpenStreetMap.Mapnik",
  "zoom": null,

    "markers": [
    {"lat": 34.65436065, "lon": 135.16060138, "label": "Origin"},
    {"lat": 34.68570215091875, "lon": 135.17086108082395, "label": "Hospital"},
    {"lat": 34.68205478120882,   "lon": 135.19598640337165, "label": "Arena"},
    {"lat": 34.66926961650059,  "lon": 135.16165644823897, "label": "Kobe City Hall"},
    {"lat": 34.680717107810594, "lon": 135.18348161641958, "label": "Kobe Harborland"},
    {"lat": 34.67253868318153, "lon": 135.18576547285866, "label": "Kawasaki Jukogyo"},
    {"lat": 34.66990508670224, "lon": 135.20411751817963, "label": "Kobe Univ"}
    ],

  "print_latlon": false,
  "print_shifted_origin": true
}
